$GPRMC,182134.00,A,5217.58623,N,00455.95294,E,0.005,,130623,,,A*71
$GPVTG,,T,,M,0.005,N,0.010,K,A*27
$GPGGA,182134.00,5217.58623,N,00455.95294,E,1,10,0.81,-4.8,M,45.9,M,,*7C
$GPGSA,A,3,04,19,20,03,09,07,11,31,06,26,,,1.32,0.81,1.05*0C
$GPGSV,3,1,11,03,30,103,39,04,64,070,44,06,64,257,47,07,20,169,41*7B
$GPGSV,3,2,11,09,78,211,48,11,30,309,42,17,04,217,36,19,15,232,40*77
$GPGSV,3,3,11,20,07,292,27,26,09,052,27,31,15,037,29*46
$GPGLL,5217.58623,N,00455.95294,E,182134.00,A,A*68
$GPRMC,182135.00,A,5217.58623,N,00455.95294,E,0.009,,130623,,,A*7C
$GPVTG,,T,,M,0.009,N,0.017,K,A*2C
$GPGGA,182135.00,5217.58623,N,00455.95294,E,1,10,0.81,-4.8,M,45.9,M,,*7D
$GPGSA,A,3,04,19,20,03,09,07,11,31,06,26,,,1.32,0.81,1.05*0C
$GPGSV,3,1,11,03,30,103,39,04,64,070,44,06,64,257,47,07,20,169,41*7B
$GPGSV,3,2,11,09,78,211,48,11,30,309,42,17,04,217,36,19,15,232,40*77
$GPGSV,3,3,11,20,07,292,28,26,09,052,27,31,15,037,30*41
$GPGLL,5217.58623,N,00455.95294,E,182135.00,A,A*69
$GPRMC,182136.00,A,5217.58623,N,00455.95295,E,0.013,,130623,,,A*75
$GPVTG,,T,,M,0.013,N,0.025,K,A*26
$GPGGA,182136.00,5217.58623,N,00455.95295,E,1,10,0.81,-4.8,M,45.9,M,,*7F
$GPGSA,A,3,04,19,20,03,09,07,11,31,06,26,,,1.32,0.81,1.05*0C
$GPGSV,3,1,11,03,30,103,39,04,64,070,44,06,64,257,47,07,20,169,41*7B
$GPGSV,3,2,11,09,78,211,48,11,30,309,42,17,04,217,36,19,15,232,39*79
$GPGSV,3,3,11,20,07,292,29,26,09,052,28,31,15,037,30*4F
$GPGLL,5217.58623,N,00455.95295,E,182136.00,A,A*6B
$GPRMC,182137.00,A,5217.58623,N,00455.95295,E,0.016,,130623,,,A*71
$GPVTG,,T,,M,0.016,N,0.030,K,A*27
$GPGGA,182137.00,5217.58623,N,00455.95295,E,1,10,0.81,-4.8,M,45.9,M,,*7E
$GPGSA,A,3,04,19,20,03,09,07,11,31,06,26,,,1.32,0.81,1.05*0C
$GPGSV,3,1,11,03,30,103,39,04,64,070,44,06,64,257,47,07,20,169,41*7B
$GPGSV,3,2,11,09,78,211,48,11,30,309,41,17,04,217,36,19,15,232,40*74
$GPGSV,3,3,11,20,07,292,31,26,09,052,29,31,15,037,29*4F
$GPGLL,5217.58623,N,00455.95295,E,182137.00,A,A*6A
$GPRMC,182138.00,A,5217.58623,N,00455.95294,E,0.005,,130623,,,A*7D
$GPVTG,,T,,M,0.005,N,0.009,K,A*2F
$GPGGA,182138.00,5217.58623,N,00455.95294,E,1,10,0.81,-4.8,M,45.9,M,,*70
$GPGSA,A,3,04,19,20,03,09,07,11,31,06,26,,,1.32,0.81,1.05*0C
$GPGSV,3,1,11,03,30,103,37,04,64,070,46,06,64,257,45,07,20,169,40*74
$GPGSV,3,2,11,09,78,211,48,11,30,309,41,17,04,217,36,19,15,232,40*74
$GPGSV,3,3,11,20,07,292,32,26,09,052,22,31,15,036,33*4D
$GPGLL,5217.58623,N,00455.95294,E,182138.00,A,A*64
$GPRMC,182139.00,A,5217.58621,N,00455.95295,E,0.123,,130623,,,A*7A
$GPVTG,,T,,M,0.123,N,0.228,K,A*2B
$GPGGA,182139.00,5217.58621,N,00455.95295,E,1,10,0.81,-4.8,M,45.9,M,,*72
$GPGSA,A,3,04,19,20,03,09,07,11,31,06,26,,,1.32,0.81,1.05*0C
$GPGSV,3,1,11,03,30,103,42,04,64,070,42,06,64,257,47,07,20,169,40*70
$GPGSV,3,2,11,09,78,211,47,11,30,309,42,17,04,217,36,19,15,232,39*76
$GPGSV,3,3,11,20,07,292,32,26,09,052,29,31,15,036,30*45
$GPGLL,5217.58621,N,00455.95295,E,182139.00,A,A*66
$GPRMC,182140.00,A,5217.58619,N,00455.95297,E,0.048,,130623,,,A*71
$GPVTG,,T,,M,0.048,N,0.089,K,A*2E
$GPGGA,182140.00,5217.58619,N,00455.95297,E,1,10,0.81,-4.8,M,45.9,M,,*75
$GPGSA,A,3,04,19,20,03,09,07,11,31,06,26,,,1.32,0.81,1.05*0C
$GPGSV,3,1,11,03,30,103,42,04,64,070,41,06,64,257,46,07,20,169,41*73
$GPGSV,3,2,11,09,78,211,47,11,30,309,43,17,04,217,36,19,15,232,40*79
$GPGSV,3,3,11,20,07,292,31,26,09,052,28,31,15,036,34*43
$GPGLL,5217.58619,N,00455.95297,E,182140.00,A,A*61
$GPRMC,182141.00,A,5217.58618,N,00455.95299,E,0.015,,130623,,,A*77
$GPVTG,,T,,M,0.015,N,0.027,K,A*22
$GPGGA,182141.00,5217.58618,N,00455.95299,E,1,10,0.81,-4.9,M,45.9,M,,*7A
$GPGSA,A,3,04,19,20,03,09,07,11,31,06,26,,,1.32,0.81,1.05*0C
$GPGSV,3,1,11,03,30,103,41,04,64,070,42,06,64,257,47,07,20,169,40*73
$GPGSV,3,2,11,09,78,211,47,11,30,309,44,17,04,217,34,19,15,232,41*7D
$GPGSV,3,3,11,20,07,292,32,26,09,052,20,31,15,036,23*4E
$GPGLL,5217.58618,N,00455.95299,E,182141.00,A,A*6F
$GPRMC,182142.00,A,5217.58616,N,00455.95298,E,0.007,,130623,,,A*78
$GPVTG,,T,,M,0.007,N,0.012,K,A*27
$GPGGA,182142.00,5217.58616,N,00455.95298,E,1,10,0.81,-4.9,M,45.9,M,,*76
$GPGSA,A,3,04,19,20,03,09,07,11,31,06,26,,,1.32,0.81,1.05*0C
$GPGSV,3,1,11,03,30,103,41,04,64,070,42,06,64,257,47,07,20,169,40*73
$GPGSV,3,2,11,09,78,211,47,11,30,309,42,17,04,217,34,19,15,232,41*7B
$GPGSV,3,3,11,20,07,292,32,26,09,052,33,31,15,036,24*4B
$GPGLL,5217.58616,N,00455.95298,E,182142.00,A,A*63
$GPRMC,182143.00,A,5217.58615,N,00455.95299,E,0.035,,130623,,,A*7A
$GPVTG,,T,,M,0.035,N,0.066,K,A*25
$GPGGA,182143.00,5217.58615,N,00455.95299,E,1,10,0.81,-5.0,M,45.9,M,,*7D
$GPGSA,A,3,04,19,20,03,09,07,11,31,06,26,,,1.32,0.81,1.05*0C
$GPGSV,3,1,11,03,30,103,40,04,64,070,40,06,64,257,47,07,20,169,40*70
$GPGSV,3,2,11,09,78,211,48,11,30,309,41,17,04,217,34,19,15,232,41*77
$GPGSV,3,3,11,20,07,292,33,26,09,052,26,31,15,036,31*4A
$GPGLL,5217.58615,N,00455.95299,E,182143.00,A,A*60
$GPRMC,182144.00,A,5217.58615,N,00455.95299,E,0.038,,130623,,,A*70
$GPVTG,,T,,M,0.038,N,0.070,K,A*2F
$GPGGA,182144.00,5217.58615,N,00455.95299,E,1,10,0.81,-4.9,M,45.9,M,,*72
$GPGSA,A,3,04,19,20,03,09,07,11,31,06,26,,,1.32,0.81,1.05*0C
$GPGSV,3,1,11,03,30,103,39,04,64,070,36,06,64,257,46,07,20,169,39*70
$GPGSV,3,2,11,09,78,211,49,11,30,309,42,17,04,217,37,19,15,232,40*77
$GPGSV,3,3,11,20,07,292,33,26,09,052,27,31,15,036,33*49
$GPGLL,5217.58615,N,00455.95299,E,182144.00,A,A*67
$GPRMC,182145.00,A,5217.58615,N,00455.95302,E,0.042,,130623,,,A*7F
$GPVTG,,T,,M,0.042,N,0.077,K,A*25
$GPGGA,182145.00,5217.58615,N,00455.95302,E,1,10,0.81,-4.9,M,45.9,M,,*70
$GPGSA,A,3,04,19,20,03,09,07,11,31,06,26,,,1.32,0.81,1.05*0C
$GPGSV,3,1,11,03,30,103,39,04,64,070,33,06,64,257,46,07,20,169,42*79
$GPGSV,3,2,11,09,78,211,49,11,30,309,42,17,04,217,31,19,15,232,39*7F
$GPGSV,3,3,11,20,07,292,33,26,09,052,29,31,15,036,27*42
$GPGLL,5217.58615,N,00455.95302,E,182145.00,A,A*65
$GPRMC,182146.00,A,5217.58616,N,00455.95304,E,0.022,,130623,,,A*7F
$GPVTG,,T,,M,0.022,N,0.040,K,A*27
$GPGGA,182146.00,5217.58616,N,00455.95304,E,1,10,0.81,-4.9,M,45.9,M,,*76
$GPGSA,A,3,04,19,20,03,09,07,11,31,06,26,,,1.32,0.81,1.05*0C
$GPGSV,3,1,11,03,30,103,40,04,64,070,37,06,64,257,47,07,20,169,41*71
$GPGSV,3,2,11,09,78,211,48,11,30,309,42,17,04,217,31,19,15,232,40*70
$GPGSV,3,3,11,20,07,292,32,26,09,052,28,31,15,036,26*43
$GPGLL,5217.58616,N,00455.95304,E,182146.00,A,A*63
